{
"type": "FeatureCollection",
"name": "centrales_hidroelectricas_che",
"crs": { "type": "name", "properties": { "name": "urn:ogc:def:crs:OGC:1.3:CRS84" } },
"features": [
{ "type": "Feature", "properties": { "fid": 1, "LRS_NOMBRE": "Central Hidroeléctrica de Berbel", "URLSIT": "http://www.saihebro.com/saihebro/index.php?url=/datos/ficha/estacion:CH01" }, "geometry": { "type": "Point", "coordinates": [ -1.557257917751169, 42.025011051568683 ] } },
{ "type": "Feature", "properties": { "fid": 2, "LRS_NOMBRE": "Central Hidroeléctrica de Ribera", "URLSIT": "http://www.saihebro.com/saihebro/index.php?url=/datos/ficha/estacion:CH02" }, "geometry": { "type": "Point", "coordinates": [ -2.028091250698785, 42.362564192116324 ] } },
{ "type": "Feature", "properties": { "fid": 3, "LRS_NOMBRE": "Central Hidroeléctrica de Mendavia", "URLSIT": "http://www.saihebro.com/saihebro/index.php?url=/datos/ficha/estacion:CH03" }, "geometry": { "type": "Point", "coordinates": [ -2.266607555523695, 42.45016484436605 ] } },
{ "type": "Feature", "properties": { "fid": 4, "LRS_NOMBRE": "Central Hidroeléctrica de Logroño", "URLSIT": "http://www.saihebro.com/saihebro/index.php?url=/datos/ficha/estacion:CH04" }, "geometry": { "type": "Point", "coordinates": [ -2.441278776620051, 42.471322590923215 ] } },
{ "type": "Feature", "properties": { "fid": 5, "LRS_NOMBRE": "Central Hidroeléctrica de Norias", "URLSIT": "http://www.saihebro.com/saihebro/index.php?url=/datos/ficha/estacion:CH05" }, "geometry": { "type": "Point", "coordinates": [ -2.460359710188595, 42.47906901770429 ] } },
{ "type": "Feature", "properties": { "fid": 6, "LRS_NOMBRE": "Central Hidroeléctrica del Cortijo", "URLSIT": "http://www.saihebro.com/saihebro/index.php?url=/datos/ficha/estacion:CH06" }, "geometry": { "type": "Point", "coordinates": [ -2.518218098734167, 42.492385348238649 ] } },
{ "type": "Feature", "properties": { "fid": 7, "LRS_NOMBRE": "Central Hidroeléctrica de Lanciego", "URLSIT": "http://www.saihebro.com/saihebro/index.php?url=/datos/ficha/estacion:CH07" }, "geometry": { "type": "Point", "coordinates": [ -2.510140704905496, 42.520089098109786 ] } },
{ "type": "Feature", "properties": { "fid": 8, "LRS_NOMBRE": "Central Hidroeléctrica de El Barco", "URLSIT": "http://www.saihebro.com/saihebro/index.php?url=/datos/ficha/estacion:CH08" }, "geometry": { "type": "Point", "coordinates": [ -2.575618152610085, 42.487118682941102 ] } },
{ "type": "Feature", "properties": { "fid": 9, "LRS_NOMBRE": "Central Hidroeléctrica de Buicio", "URLSIT": "http://www.saihebro.com/saihebro/index.php?url=/datos/ficha/estacion:CH09" }, "geometry": { "type": "Point", "coordinates": [ -2.58572925567475, 42.474277254771714 ] } },
{ "type": "Feature", "properties": { "fid": 10, "LRS_NOMBRE": "Central Hidroeléctrica de Elciego", "URLSIT": "http://www.saihebro.com/saihebro/index.php?url=/datos/ficha/estacion:CH10" }, "geometry": { "type": "Point", "coordinates": [ -2.639949541253277, 42.485087361517834 ] } },
{ "type": "Feature", "properties": { "fid": 11, "LRS_NOMBRE": "Central Hidroeléctrica de San Vicente Sonsierra", "URLSIT": "http://www.saihebro.com/saihebro/index.php?url=/datos/ficha/estacion:CH11" }, "geometry": { "type": "Point", "coordinates": [ -2.759067736331676, 42.555375045114538 ] } },
{ "type": "Feature", "properties": { "fid": 12, "LRS_NOMBRE": "Central Hidroeléctrica de Labastida", "URLSIT": "http://www.saihebro.com/saihebro/index.php?url=/datos/ficha/estacion:CH12" }, "geometry": { "type": "Point", "coordinates": [ -2.800899087234501, 42.566532470388935 ] } },
{ "type": "Feature", "properties": { "fid": 13, "LRS_NOMBRE": "Central Hidroeléctrica de Molino de Suso", "URLSIT": "http://www.saihebro.com/saihebro/index.php?url=/datos/ficha/estacion:CH13" }, "geometry": { "type": "Point", "coordinates": [ -2.817457200524411, 42.59546849590329 ] } },
{ "type": "Feature", "properties": { "fid": 14, "LRS_NOMBRE": "Central Hidroeléctrica de La Arboleda", "URLSIT": "http://www.saihebro.com/saihebro/index.php?url=/datos/ficha/estacion:CH14" }, "geometry": { "type": "Point", "coordinates": [ -2.947234883135769, 42.680705259379465 ] } },
{ "type": "Feature", "properties": { "fid": 15, "LRS_NOMBRE": "Central Hidroeléctrica de Cabriana", "URLSIT": "http://www.saihebro.com/saihebro/index.php?url=/datos/ficha/estacion:CH15" }, "geometry": { "type": "Point", "coordinates": [ -2.971175703166093, 42.695212774249946 ] } },
{ "type": "Feature", "properties": { "fid": 16, "LRS_NOMBRE": "Azud del Ebro en Zaragoza", "URLSIT": "http://www.saihebro.com/saihebro/index.php?url=/datos/ficha/estacion:CH16" }, "geometry": { "type": "Point", "coordinates": [ -0.857038975099924, 41.652560858921412 ] } },
{ "type": "Feature", "properties": { "fid": 17, "LRS_NOMBRE": "Central de San José (Origen C. Aragón y Cataluña)", "URLSIT": "http://www.saihebro.com/saihebro/index.php?url=/datos/ficha/estacion:CH17" }, "geometry": { "type": "Point", "coordinates": [ 0.291466035810392, 42.113204797398353 ] } },
{ "type": "Feature", "properties": { "fid": 18, "LRS_NOMBRE": "Central Hidroeléctrica de Sástago II", "URLSIT": "http://www.saihebro.com/saihebro/index.php?url=/datos/ficha/estacion:CH18" }, "geometry": { "type": "Point", "coordinates": [ -0.365643403502681, 41.31748612212904 ] } },
{ "type": "Feature", "properties": { "fid": 19, "LRS_NOMBRE": "Central Hidroeléctrica de Mélida Traibuenas", "URLSIT": "http://www.saihebro.com/saihebro/index.php?url=/datos/ficha/estacion:CH20" }, "geometry": { "type": "Point", "coordinates": [ -1.582207933034709, 42.356295884616337 ] } },
{ "type": "Feature", "properties": { "fid": 20, "LRS_NOMBRE": "Central Hidroeléctrica de Eriste", "URLSIT": "http://www.saihebro.com/saihebro/index.php?url=/datos/ficha/estacion:CH21" }, "geometry": { "type": "Point", "coordinates": [ 0.490975490637755, 42.588775367947527 ] } },
{ "type": "Feature", "properties": { "fid": 21, "LRS_NOMBRE": "Central Auxiliar de Campo", "URLSIT": "http://www.saihebro.com/saihebro/index.php?url=/datos/ficha/estacion:CH22" }, "geometry": { "type": "Point", "coordinates": [ 0.386766362890867, 42.426044233079907 ] } },
{ "type": "Feature", "properties": { "fid": 22, "LRS_NOMBRE": "Central Hidroelectrica de Sesue", "URLSIT": "http://www.saihebro.com/saihebro/index.php?url=/datos/ficha/estacion:CH23" }, "geometry": { "type": "Point", "coordinates": [ 0.470536107859716, 42.542394317097241 ] } },
{ "type": "Feature", "properties": { "fid": 23, "LRS_NOMBRE": "Central Hidroeléctrica de Seira", "URLSIT": "http://www.saihebro.com/saihebro/index.php?url=/datos/ficha/estacion:CH24" }, "geometry": { "type": "Point", "coordinates": [ 0.436172249937223, 42.47823900655041 ] } },
{ "type": "Feature", "properties": { "fid": 24, "LRS_NOMBRE": "Central Hidroeléctrica Argoné", "URLSIT": "http://www.saihebro.com/saihebro/index.php?url=/datos/ficha/estacion:CH25" }, "geometry": { "type": "Point", "coordinates": [ 0.381909299824563, 42.429969713925274 ] } },
{ "type": "Feature", "properties": { "fid": 25, "LRS_NOMBRE": "Central Hidroeléctrica de Aratores", "URLSIT": "http://www.saihebro.com/saihebro/index.php?url=/datos/ficha/estacion:CH26" }, "geometry": { "type": "Point", "coordinates": [ -0.550987888525808, 42.657863134538935 ] } },
{ "type": "Feature", "properties": { "fid": 26, "LRS_NOMBRE": "Central Hidroeléctrica Castiello", "URLSIT": "http://www.saihebro.com/saihebro/index.php?url=/datos/ficha/estacion:CH27" }, "geometry": { "type": "Point", "coordinates": [ -0.547047865505315, 42.636437035115314 ] } },
{ "type": "Feature", "properties": { "fid": 27, "LRS_NOMBRE": "Central Hidroeléctrica Embid", "URLSIT": "http://www.saihebro.com/saihebro/index.php?url=/datos/ficha/estacion:CH28" }, "geometry": { "type": "Point", "coordinates": [ -1.609980096955858, 41.401489826245935 ] } },
{ "type": "Feature", "properties": { "fid": 28, "LRS_NOMBRE": "Central Hidroeléctria Purroy", "URLSIT": "http://www.saihebro.com/saihebro/index.php?url=/datos/ficha/estacion:CH29" }, "geometry": { "type": "Point", "coordinates": [ -1.536724140822253, 41.476421830421536 ] } },
{ "type": "Feature", "properties": { "fid": 29, "LRS_NOMBRE": "Central Hidroeléctrica Rivera", "URLSIT": "http://www.saihebro.com/saihebro/index.php?url=/datos/ficha/estacion:CH30" }, "geometry": { "type": "Point", "coordinates": [ -0.541567453487489, 41.084951749418813 ] } },
{ "type": "Feature", "properties": { "fid": 30, "LRS_NOMBRE": "Central Hidroeléctrica Anzánigo", "URLSIT": "http://www.saihebro.com/saihebro/index.php?url=/datos/ficha/estacion:CH31" }, "geometry": { "type": "Point", "coordinates": [ -0.645170911027837, 42.406253679820423 ] } },
{ "type": "Feature", "properties": { "fid": 31, "LRS_NOMBRE": "Central Hidroelectrica Hidro-Huesca", "URLSIT": "http://www.saihebro.com/saihebro/index.php?url=/datos/ficha/estacion:CH32" }, "geometry": { "type": "Point", "coordinates": [ -0.665992014210651, 42.392991580892627 ] } },
{ "type": "Feature", "properties": { "fid": 32, "LRS_NOMBRE": "Central Hidroeléctrica del Pueyo", "URLSIT": "http://www.saihebro.com/saihebro/index.php?url=/datos/ficha/estacion:CH35" }, "geometry": { "type": "Point", "coordinates": [ -0.305979681284087, 42.729080263368544 ] } },
{ "type": "Feature", "properties": { "fid": 33, "LRS_NOMBRE": "Central Hidroeléctrica  Lanuza", "URLSIT": "http://www.saihebro.com/saihebro/index.php?url=/datos/ficha/estacion:CH40" }, "geometry": { "type": "Point", "coordinates": [ -0.306532132625728, 42.728733077318473 ] } },
{ "type": "Feature", "properties": { "fid": 34, "LRS_NOMBRE": "Central Hidroeléctrica de Sallent", "URLSIT": "http://www.saihebro.com/saihebro/index.php?url=/datos/ficha/estacion:CH41" }, "geometry": { "type": "Point", "coordinates": [ -0.332650275066984, 42.779590978081522 ] } },
{ "type": "Feature", "properties": { "fid": 35, "LRS_NOMBRE": "Central Hidroeléctrica de Escarra", "URLSIT": "http://www.saihebro.com/saihebro/index.php?url=/datos/ficha/estacion:CH42" }, "geometry": { "type": "Point", "coordinates": [ -0.341198581639583, 42.779789905178788 ] } },
{ "type": "Feature", "properties": { "fid": 36, "LRS_NOMBRE": "Central Hidroléctrica Baños", "URLSIT": "http://www.saihebro.com/saihebro/index.php?url=/datos/ficha/estacion:CH43" }, "geometry": { "type": "Point", "coordinates": [ -0.232399227111171, 42.762082556754926 ] } },
{ "type": "Feature", "properties": { "fid": 37, "LRS_NOMBRE": "Central Hidroeléctricas Biescas I", "URLSIT": "http://www.saihebro.com/saihebro/index.php?url=/datos/ficha/estacion:CH44" }, "geometry": { "type": "Point", "coordinates": [ -0.319830445381211, 42.632604031338467 ] } },
{ "type": "Feature", "properties": { "fid": 38, "LRS_NOMBRE": "Central Hidroeléctrica Jabarrella", "URLSIT": "http://www.saihebro.com/saihebro/index.php?url=/datos/ficha/estacion:CH45" }, "geometry": { "type": "Point", "coordinates": [ -0.460786372959213, 42.419515556860553 ] } },
{ "type": "Feature", "properties": { "fid": 39, "LRS_NOMBRE": "Central Hidroeléctrica Sabiñánigo", "URLSIT": "http://www.saihebro.com/saihebro/index.php?url=/datos/ficha/estacion:CH46" }, "geometry": { "type": "Point", "coordinates": [ -0.375853428768892, 42.480997471844717 ] } },
{ "type": "Feature", "properties": { "fid": 40, "LRS_NOMBRE": "Central Hidroeléctrica Javierrelatre", "URLSIT": "http://www.saihebro.com/saihebro/index.php?url=/datos/ficha/estacion:CH47" }, "geometry": { "type": "Point", "coordinates": [ -0.532862299093952, 42.398036941594604 ] } },
{ "type": "Feature", "properties": { "fid": 41, "LRS_NOMBRE": "Central Hidroeléctrica de Valdespartera", "URLSIT": "http://www.saihebro.com/saihebro/index.php?url=/datos/ficha/estacion:CH48" }, "geometry": { "type": "Point", "coordinates": [ -0.750934038338697, 42.173243783646839 ] } },
{ "type": "Feature", "properties": { "fid": 42, "LRS_NOMBRE": "Central Hidroeléctrica de Jaca", "URLSIT": "http://www.saihebro.com/saihebro/index.php?url=/datos/ficha/estacion:CH49" }, "geometry": { "type": "Point", "coordinates": [ -0.550382726244379, 42.584999794613289 ] } },
{ "type": "Feature", "properties": { "fid": 43, "LRS_NOMBRE": "Centrales Hidroeléctricas de Arties y Aiguamoix", "URLSIT": "http://www.saihebro.com/saihebro/index.php?url=/datos/ficha/estacion:CH50" }, "geometry": { "type": "Point", "coordinates": [ 0.876820389634195, 42.699797004132705 ] } },
{ "type": "Feature", "properties": { "fid": 44, "LRS_NOMBRE": "Central de Lafortunada", "URLSIT": "http://www.saihebro.com/saihebro/index.php?url=/datos/ficha/estacion:CH70" }, "geometry": { "type": "Point", "coordinates": [ 0.197738345529204, 42.543136798578161 ] } },
{ "type": "Feature", "properties": { "fid": 45, "LRS_NOMBRE": "Central de Laspuña", "URLSIT": "http://www.saihebro.com/saihebro/index.php?url=/datos/ficha/estacion:CH71" }, "geometry": { "type": "Point", "coordinates": [ 0.149068240629519, 42.505405799171356 ] } },
{ "type": "Feature", "properties": { "fid": 46, "LRS_NOMBRE": "Central Hidroeléctrica de Canalroya", "URLSIT": "http://www.saihebro.com/saihebro/index.php?url=/datos/ficha/estacion:CH72" }, "geometry": { "type": "Point", "coordinates": [ -0.516445916091803, 42.745186672825298 ] } },
{ "type": "Feature", "properties": { "fid": 47, "LRS_NOMBRE": "Central Hidroeléctrica de Villanua", "URLSIT": "http://www.saihebro.com/saihebro/index.php?url=/datos/ficha/estacion:CH73" }, "geometry": { "type": "Point", "coordinates": [ -0.530395129338812, 42.685245975436686 ] } },
{ "type": "Feature", "properties": { "fid": 48, "LRS_NOMBRE": "Central Hidroeléctrica de Carcavilla", "URLSIT": "http://www.saihebro.com/saihebro/index.php?url=/datos/ficha/estacion:CH74" }, "geometry": { "type": "Point", "coordinates": [ -0.736711398438844, 42.370996196327063 ] } },
{ "type": "Feature", "properties": { "fid": 49, "LRS_NOMBRE": "Central Hidroeléctrica de Marracos", "URLSIT": "http://www.saihebro.com/saihebro/index.php?url=/datos/ficha/estacion:CH75" }, "geometry": { "type": "Point", "coordinates": [ -0.77471191341834, 42.062306089395079 ] } },
{ "type": "Feature", "properties": { "fid": 50, "LRS_NOMBRE": "Central hidroeléctrica Barrosa", "URLSIT": "http://www.saihebro.com/saihebro/index.php?url=/datos/ficha/estacion:CH83" }, "geometry": { "type": "Point", "coordinates": [ 0.214574617608984, 42.675661849862955 ] } },
{ "type": "Feature", "properties": { "fid": 51, "LRS_NOMBRE": "Central Olaldea 1", "URLSIT": "http://www.saihebro.com/saihebro/index.php?url=/datos/ficha/estacion:EH01" }, "geometry": { "type": "Point", "coordinates": [ -1.292148199961767, 42.916975568616166 ] } },
{ "type": "Feature", "properties": { "fid": 52, "LRS_NOMBRE": "Central Olaldea 2", "URLSIT": "http://www.saihebro.com/saihebro/index.php?url=/datos/ficha/estacion:EH02" }, "geometry": { "type": "Point", "coordinates": [ -1.290933673371605, 42.916146995061702 ] } },
{ "type": "Feature", "properties": { "fid": 53, "LRS_NOMBRE": "Central de Oroz Betelu", "URLSIT": "http://www.saihebro.com/saihebro/index.php?url=/datos/ficha/estacion:EH03" }, "geometry": { "type": "Point", "coordinates": [ -1.301260700536251, 42.894778928626366 ] } },
{ "type": "Feature", "properties": { "fid": 54, "LRS_NOMBRE": "Central de Murillo", "URLSIT": "http://www.saihebro.com/saihebro/index.php?url=/datos/ficha/estacion:EH04" }, "geometry": { "type": "Point", "coordinates": [ -1.423649719730903, 42.388987417264538 ] } },
{ "type": "Feature", "properties": { "fid": 55, "LRS_NOMBRE": "Central de Santa Cara", "URLSIT": "http://www.saihebro.com/saihebro/index.php?url=/datos/ficha/estacion:EH05" }, "geometry": { "type": "Point", "coordinates": [ -1.540465317175589, 42.375584816657017 ] } },
{ "type": "Feature", "properties": { "fid": 56, "LRS_NOMBRE": "Central de Caparroso", "URLSIT": "http://www.saihebro.com/saihebro/index.php?url=/datos/ficha/estacion:EH06" }, "geometry": { "type": "Point", "coordinates": [ -1.666913163926946, 42.347675902567246 ] } },
{ "type": "Feature", "properties": { "fid": 57, "LRS_NOMBRE": "Central de Falces", "URLSIT": "http://www.saihebro.com/saihebro/index.php?url=/datos/ficha/estacion:EH07" }, "geometry": { "type": "Point", "coordinates": [ -1.797443353726795, 42.422517299815446 ] } },
{ "type": "Feature", "properties": { "fid": 58, "LRS_NOMBRE": "Central de Sarria", "URLSIT": "http://www.saihebro.com/saihebro/index.php?url=/datos/ficha/estacion:EH08" }, "geometry": { "type": "Point", "coordinates": [ -1.827763071018877, 42.700114405658439 ] } },
{ "type": "Feature", "properties": { "fid": 59, "LRS_NOMBRE": "Central de Lerin", "URLSIT": "http://www.saihebro.com/saihebro/index.php?url=/datos/ficha/estacion:EH09" }, "geometry": { "type": "Point", "coordinates": [ -1.980470622613845, 42.521103707499385 ] } },
{ "type": "Feature", "properties": { "fid": 60, "LRS_NOMBRE": "Central de Viana 2", "URLSIT": "http://www.saihebro.com/saihebro/index.php?url=/datos/ficha/estacion:EH10" }, "geometry": { "type": "Point", "coordinates": [ -2.337819063555354, 42.463026498378625 ] } },
{ "type": "Feature", "properties": { "fid": 61, "LRS_NOMBRE": "Central de Viana 3", "URLSIT": "http://www.saihebro.com/saihebro/index.php?url=/datos/ficha/estacion:EH11" }, "geometry": { "type": "Point", "coordinates": [ -2.301128904576168, 42.461367713079433 ] } },
{ "type": "Feature", "properties": { "fid": 62, "LRS_NOMBRE": "Central de Alcanadre", "URLSIT": "http://www.saihebro.com/saihebro/index.php?url=/datos/ficha/estacion:EH12" }, "geometry": { "type": "Point", "coordinates": [ -2.122140137327487, 42.415197215081783 ] } },
{ "type": "Feature", "properties": { "fid": 63, "LRS_NOMBRE": "Central de Lodosa", "URLSIT": "http://www.saihebro.com/saihebro/index.php?url=/datos/ficha/estacion:EH13" }, "geometry": { "type": "Point", "coordinates": [ -2.106685271780626, 42.417419352910144 ] } },
{ "type": "Feature", "properties": { "fid": 64, "LRS_NOMBRE": "Central de Sartaguda", "URLSIT": "http://www.saihebro.com/saihebro/index.php?url=/datos/ficha/estacion:EH14" }, "geometry": { "type": "Point", "coordinates": [ -2.057807849141993, 42.376321219191986 ] } },
{ "type": "Feature", "properties": { "fid": 65, "LRS_NOMBRE": "Central de Machín", "URLSIT": "http://www.saihebro.com/saihebro/index.php?url=/datos/ficha/estacion:EH15" }, "geometry": { "type": "Point", "coordinates": [ -1.866612751945915, 42.267419073178345 ] } },
{ "type": "Feature", "properties": { "fid": 66, "LRS_NOMBRE": "Central de Tudela", "URLSIT": "http://www.saihebro.com/saihebro/index.php?url=/datos/ficha/estacion:EH16" }, "geometry": { "type": "Point", "coordinates": [ -1.603312866214288, 42.083581382096959 ] } }
]
}
